header: 
  seq: 1
  stamp: 
    secs: 1650324055
    nsecs: 738994836
  frame_id: ''
mode: 2
names: 
  - panda_joint1
  - panda_joint2
  - panda_joint3
  - panda_joint4
  - panda_joint5
  - panda_joint6
  - panda_joint7
position: [-0.056019437793593294, 0.08768494009326883, 0.045692190346487756, -2.0169725358180983, -0.01159334967709334, 2.1390387610594432, 0.7998855982278277]
velocity: [0.0, 0.0, 0.0, 0.0, 0.0, 0.0, 0.0]
acceleration: []
effort: []
---
header: 
  seq: 2
  stamp: 
    secs: 1650324055
    nsecs: 994396924
  frame_id: ''
mode: 2
names: 
  - panda_joint1
  - panda_joint2
  - panda_joint3
  - panda_joint4
  - panda_joint5
  - panda_joint6
  - panda_joint7
position: [-0.056019437793593294, 0.08768494009326883, 0.045692190346487756, -2.0169725358180983, -0.01159334967709334, 2.1390387610594432, 0.7998855982278277]
velocity: [0.19203555417896748, -0.17536988017851846, -0.09138827253034344, 0.8339418838233268, 0.023181409315930473, -1.078078946272532, 0.00024600382733841464]
acceleration: []
effort: []
---
header: 
  seq: 3
  stamp: 
    secs: 1650324056
    nsecs:  20523071
  frame_id: ''
mode: 2
names: 
  - panda_joint1
  - panda_joint2
  - panda_joint3
  - panda_joint4
  - panda_joint5
  - panda_joint6
  - panda_joint7
position: [-0.056019437793593294, 0.08768494009326883, 0.045692190346487756, -2.0169725358180983, -0.01159334967709334, 2.1390387610594432, 0.7998855982278277]
velocity: [0.19199792607294588, -0.17522264892978914, -0.09137265835230357, 0.8337168037048581, 0.023185393936104245, -1.077900647967713, 0.00024603197715733494]
acceleration: []
effort: []
---
header: 
  seq: 4
  stamp: 
    secs: 1650324056
    nsecs:  46033382
  frame_id: ''
mode: 2
names: 
  - panda_joint1
  - panda_joint2
  - panda_joint3
  - panda_joint4
  - panda_joint5
  - panda_joint6
  - panda_joint7
position: [-0.056019437793593294, 0.08768494009326883, 0.045692190346487756, -2.0169725358180983, -0.01159334967709334, 2.1390387610594432, 0.7998855982278277]
velocity: [0.19150300771347184, -0.17476527531573924, -0.09117866977468386, 0.8312215365708484, 0.023190008445245963, -1.0747153389366613, 0.00025020073822390465]
acceleration: []
effort: []
---
header: 
  seq: 5
  stamp: 
    secs: 1650324056
    nsecs:  71531295
  frame_id: ''
mode: 2
names: 
  - panda_joint1
  - panda_joint2
  - panda_joint3
  - panda_joint4
  - panda_joint5
  - panda_joint6
  - panda_joint7
position: [-0.056019437793593294, 0.08768494009326883, 0.045692190346487756, -2.0169725358180983, -0.01159334967709334, 2.1390387610594432, 0.7998855982278277]
velocity: [0.19037677839913608, -0.17406806600381872, -0.09062930311146114, 0.8256894915278874, 0.023188382662667525, -1.066891362963461, 0.0002481861260015261]
acceleration: []
effort: []
---
header: 
  seq: 6
  stamp: 
    secs: 1650324056
    nsecs:  97043275
  frame_id: ''
mode: 2
names: 
  - panda_joint1
  - panda_joint2
  - panda_joint3
  - panda_joint4
  - panda_joint5
  - panda_joint6
  - panda_joint7
position: [-0.056019437793593294, 0.08768494009326883, 0.045692190346487756, -2.0169725358180983, -0.01159334967709334, 2.1390387610594432, 0.7998855982278277]
velocity: [0.18861557492671116, -0.17290084490462326, -0.08981855470422813, 0.8174385055207756, 0.023130506288745974, -1.0555497516378498, 0.00024107310758858524]
acceleration: []
effort: []
---
header: 
  seq: 7
  stamp: 
    secs: 1650324056
    nsecs: 122619152
  frame_id: ''
mode: 2
names: 
  - panda_joint1
  - panda_joint2
  - panda_joint3
  - panda_joint4
  - panda_joint5
  - panda_joint6
  - panda_joint7
position: [-0.056019437793593294, 0.08768494009326883, 0.045692190346487756, -2.0169725358180983, -0.01159334967709334, 2.1390387610594432, 0.7998855982278277]
velocity: [0.18627683032001108, -0.170735885335429, -0.08864727620467493, 0.8069448633296528, 0.023000909527615094, -1.0416459403958278, 0.00023658945078497418]
acceleration: []
effort: []
---
header: 
  seq: 8
  stamp: 
    secs: 1650324056
    nsecs: 148169040
  frame_id: ''
mode: 2
names: 
  - panda_joint1
  - panda_joint2
  - panda_joint3
  - panda_joint4
  - panda_joint5
  - panda_joint6
  - panda_joint7
position: [-0.056019437793593294, 0.08768494009326883, 0.045692190346487756, -2.0169725358180983, -0.01159334967709334, 2.1390387610594432, 0.7998855982278277]
velocity: [0.18318363682019617, -0.16791285170273748, -0.08717006298652286, 0.7932783987526792, 0.022649034792863256, -1.0240664258730954, 0.0002467503328760223]
acceleration: []
effort: []
---
header: 
  seq: 9
  stamp: 
    secs: 1650324056
    nsecs: 173668384
  frame_id: ''
mode: 2
names: 
  - panda_joint1
  - panda_joint2
  - panda_joint3
  - panda_joint4
  - panda_joint5
  - panda_joint6
  - panda_joint7
position: [-0.056019437793593294, 0.08768494009326883, 0.045692190346487756, -2.0169725358180983, -0.01159334967709334, 2.1390387610594432, 0.7998855982278277]
velocity: [0.17995763730962883, -0.16469115118652689, -0.08573737834402466, 0.7787214805931852, 0.022259226076990483, -1.0055444471172796, 0.0002474222110757651]
acceleration: []
effort: []
---
header: 
  seq: 10
  stamp: 
    secs: 1650324056
    nsecs: 199692249
  frame_id: ''
mode: 2
names: 
  - panda_joint1
  - panda_joint2
  - panda_joint3
  - panda_joint4
  - panda_joint5
  - panda_joint6
  - panda_joint7
position: [-0.056019437793593294, 0.08768494009326883, 0.045692190346487756, -2.0169725358180983, -0.01159334967709334, 2.1390387610594432, 0.7998855982278277]
velocity: [0.17621901159917974, -0.16119609921824254, -0.08393020668771109, 0.7624231632052147, 0.021905623260460194, -0.9838982075086262, 0.0002474566695860325]
acceleration: []
effort: []
---
header: 
  seq: 11
  stamp: 
    secs: 1650324056
    nsecs: 225444316
  frame_id: ''
mode: 2
names: 
  - panda_joint1
  - panda_joint2
  - panda_joint3
  - panda_joint4
  - panda_joint5
  - panda_joint6
  - panda_joint7
position: [-0.056019437793593294, 0.08768494009326883, 0.045692190346487756, -2.0169725358180983, -0.01159334967709334, 2.1390387610594432, 0.7998855982278277]
velocity: [0.17175171227915928, -0.15684678498144777, -0.08183322952123938, 0.7422733674939046, 0.021382244455901606, -0.9585773784476235, 0.00025030249515256564]
acceleration: []
effort: []
---
header: 
  seq: 12
  stamp: 
    secs: 1650324056
    nsecs: 251055479
  frame_id: ''
mode: 2
names: 
  - panda_joint1
  - panda_joint2
  - panda_joint3
  - panda_joint4
  - panda_joint5
  - panda_joint6
  - panda_joint7
position: [-0.056019437793593294, 0.08768494009326883, 0.045692190346487756, -2.0169725358180983, -0.01159334967709334, 2.1390387610594432, 0.7998855982278277]
velocity: [0.1668518867733655, -0.1521907870999289, -0.07949915975604709, 0.7205542301805141, 0.020840054678977385, -0.9306536894953652, 0.0002474570881236815]
acceleration: []
effort: []
---
header: 
  seq: 13
  stamp: 
    secs: 1650324056
    nsecs: 276684999
  frame_id: ''
mode: 2
names: 
  - panda_joint1
  - panda_joint2
  - panda_joint3
  - panda_joint4
  - panda_joint5
  - panda_joint6
  - panda_joint7
position: [-0.056019437793593294, 0.08768494009326883, 0.045692190346487756, -2.0169725358180983, -0.01159334967709334, 2.1390387610594432, 0.7998855982278277]
velocity: [0.16215304634283423, -0.14783264235820945, -0.07749989332809068, 0.7004457797627519, 0.020320450463352003, -0.9044367659368513, 0.00024250200550479661]
acceleration: []
effort: []
---
header: 
  seq: 14
  stamp: 
    secs: 1650324056
    nsecs: 302529335
  frame_id: ''
mode: 2
names: 
  - panda_joint1
  - panda_joint2
  - panda_joint3
  - panda_joint4
  - panda_joint5
  - panda_joint6
  - panda_joint7
position: [-0.056019437793593294, 0.08768494009326883, 0.045692190346487756, -2.0169725358180983, -0.01159334967709334, 2.1390387610594432, 0.7998855982278277]
velocity: [0.15647828164886624, -0.14279071372132476, -0.0749257082313492, 0.6762565440375763, 0.019717624612084525, -0.8736466575093003, 0.00025029624362549185]
acceleration: []
effort: []
---
header: 
  seq: 15
  stamp: 
    secs: 1650324056
    nsecs: 328712224
  frame_id: ''
mode: 2
names: 
  - panda_joint1
  - panda_joint2
  - panda_joint3
  - panda_joint4
  - panda_joint5
  - panda_joint6
  - panda_joint7
position: [-0.056019437793593294, 0.08768494009326883, 0.045692190346487756, -2.0169725358180983, -0.01159334967709334, 2.1390387610594432, 0.7998855982278277]
velocity: [0.15072771213434538, -0.1377890967227709, -0.07227564664625832, 0.6515251539014422, 0.01906941092374177, -0.840891571253576, 0.0002460326221438436]
acceleration: []
effort: []
---
header: 
  seq: 16
  stamp: 
    secs: 1650324056
    nsecs: 354547262
  frame_id: ''
mode: 2
names: 
  - panda_joint1
  - panda_joint2
  - panda_joint3
  - panda_joint4
  - panda_joint5
  - panda_joint6
  - panda_joint7
position: [-0.056019437793593294, 0.08768494009326883, 0.045692190346487756, -2.0169725358180983, -0.01159334967709334, 2.1390387610594432, 0.7998855982278277]
velocity: [0.14548045991696532, -0.1328850060619429, -0.06962590098842547, 0.6283653950645176, 0.01846243301520418, -0.8116035370430437, 0.00024171487583135587]
acceleration: []
effort: []
