header: 
  seq: 1
  stamp: 
    secs: 1650324055
    nsecs: 738994836
  frame_id: ''
mode: 2
names: 
  - panda_joint1
  - panda_joint2
  - panda_joint3
  - panda_joint4
  - panda_joint5
  - panda_joint6
  - panda_joint7
position: [-0.056019437793593294, 0.08768494009326883, 0.045692190346487756, -2.0169725358180983, -0.01159334967709334, 2.1390387610594432, 0.7998855982278277]
velocity: [0.0, 0.0, 0.0, 0.0, 0.0, 0.0, 0.0]
acceleration: []
effort: []
---
header: 
  seq: 2
  stamp: 
    secs: 1650324055
    nsecs: 994396924
  frame_id: ''
mode: 2
names: 
  - panda_joint1
  - panda_joint2
  - panda_joint3
  - panda_joint4
  - panda_joint5
  - panda_joint6
  - panda_joint7
position: [-0.056019437793593294, 0.08768494009326883, 0.045692190346487756, -2.0169725358180983, -0.01159334967709334, 2.1390387610594432, 0.7998855982278277]
velocity: [0.19203555417896748, -0.17536988017851846, -0.09138827253034344, 0.8339418838233268, 0.023181409315930473, -1.078078946272532, 0.00024600382733841464]
acceleration: []
effort: []
---
header: 
  seq: 3
  stamp: 
    secs: 1650324056
    nsecs:  20523071
  frame_id: ''
mode: 2
names: 
  - panda_joint1
  - panda_joint2
  - panda_joint3
  - panda_joint4
  - panda_joint5
  - panda_joint6
  - panda_joint7
position: [-0.056019437793593294, 0.08768494009326883, 0.045692190346487756, -2.0169725358180983, -0.01159334967709334, 2.1390387610594432, 0.7998855982278277]
velocity: [0.19199792607294588, -0.17522264892978914, -0.09137265835230357, 0.8337168037048581, 0.023185393936104245, -1.077900647967713, 0.00024603197715733494]
acceleration: []
effort: []
---
header: 
  seq: 4
  stamp: 
    secs: 1650324056
    nsecs:  46033382
  frame_id: ''
mode: 2
names: 
  - panda_joint1
  - panda_joint2
  - panda_joint3
  - panda_joint4
  - panda_joint5
  - panda_joint6
  - panda_joint7
position: [-0.056019437793593294, 0.08768494009326883, 0.045692190346487756, -2.0169725358180983, -0.01159334967709334, 2.1390387610594432, 0.7998855982278277]
velocity: [0.19150300771347184, -0.17476527531573924, -0.09117866977468386, 0.8312215365708484, 0.023190008445245963, -1.0747153389366613, 0.00025020073822390465]
acceleration: []
effort: []
---
header: 
  seq: 5
  stamp: 
    secs: 1650324056
    nsecs:  71531295
  frame_id: ''
mode: 2
names: 
  - panda_joint1
  - panda_joint2
  - panda_joint3
  - panda_joint4
  - panda_joint5
  - panda_joint6
  - panda_joint7
position: [-0.056019437793593294, 0.08768494009326883, 0.045692190346487756, -2.0169725358180983, -0.01159334967709334, 2.1390387610594432, 0.7998855982278277]
velocity: [0.19037677839913608, -0.17406806600381872, -0.09062930311146114, 0.8256894915278874, 0.023188382662667525, -1.066891362963461, 0.0002481861260015261]
acceleration: []
effort: []
---
header: 
  seq: 6
  stamp: 
    secs: 1650324056
    nsecs:  97043275
  frame_id: ''
mode: 2
names: 
  - panda_joint1
  - panda_joint2
  - panda_joint3
  - panda_joint4
  - panda_joint5
  - panda_joint6
  - panda_joint7
position: [-0.056019437793593294, 0.08768494009326883, 0.045692190346487756, -2.0169725358180983, -0.01159334967709334, 2.1390387610594432, 0.7998855982278277]
velocity: [0.18861557492671116, -0.17290084490462326, -0.08981855470422813, 0.8174385055207756, 0.023130506288745974, -1.0555497516378498, 0.00024107310758858524]
acceleration: []
effort: []
---
header: 
  seq: 7
  stamp: 
    secs: 1650324056
    nsecs: 122619152
  frame_id: ''
mode: 2
names: 
  - panda_joint1
  - panda_joint2
  - panda_joint3
  - panda_joint4
  - panda_joint5
  - panda_joint6
  - panda_joint7
position: [-0.056019437793593294, 0.08768494009326883, 0.045692190346487756, -2.0169725358180983, -0.01159334967709334, 2.1390387610594432, 0.7998855982278277]
velocity: [0.18627683032001108, -0.170735885335429, -0.08864727620467493, 0.8069448633296528, 0.023000909527615094, -1.0416459403958278, 0.00023658945078497418]
acceleration: []
effort: []
---
header: 
  seq: 8
  stamp: 
    secs: 1650324056
    nsecs: 148169040
  frame_id: ''
mode: 2
names: 
  - panda_joint1
  - panda_joint2
  - panda_joint3
  - panda_joint4
  - panda_joint5
  - panda_joint6
  - panda_joint7
position: [-0.056019437793593294, 0.08768494009326883, 0.045692190346487756, -2.0169725358180983, -0.01159334967709334, 2.1390387610594432, 0.7998855982278277]
velocity: [0.18318363682019617, -0.16791285170273748, -0.08717006298652286, 0.7932783987526792, 0.022649034792863256, -1.0240664258730954, 0.0002467503328760223]
acceleration: []
effort: []
---
header: 
  seq: 9
  stamp: 
    secs: 1650324056
    nsecs: 173668384
  frame_id: ''
mode: 2
names: 
  - panda_joint1
  - panda_joint2
  - panda_joint3
  - panda_joint4
  - panda_joint5
  - panda_joint6
  - panda_joint7
position: [-0.056019437793593294, 0.08768494009326883, 0.045692190346487756, -2.0169725358180983, -0.01159334967709334, 2.1390387610594432, 0.7998855982278277]
velocity: [0.17995763730962883, -0.16469115118652689, -0.08573737834402466, 0.7787214805931852, 0.022259226076990483, -1.0055444471172796, 0.0002474222110757651]
acceleration: []
effort: []
---
header: 
  seq: 10
  stamp: 
    secs: 1650324056
    nsecs: 199692249
  frame_id: ''
mode: 2
names: 
  - panda_joint1
  - panda_joint2
  - panda_joint3
  - panda_joint4
  - panda_joint5
  - panda_joint6
  - panda_joint7
position: [-0.056019437793593294, 0.08768494009326883, 0.045692190346487756, -2.0169725358180983, -0.01159334967709334, 2.1390387610594432, 0.7998855982278277]
velocity: [0.17621901159917974, -0.16119609921824254, -0.08393020668771109, 0.7624231632052147, 0.021905623260460194, -0.9838982075086262, 0.0002474566695860325]
acceleration: []
effort: []
---
header: 
  seq: 11
  stamp: 
    secs: 1650324056
    nsecs: 225444316
  frame_id: ''
mode: 2
names: 
  - panda_joint1
  - panda_joint2
  - panda_joint3
  - panda_joint4
  - panda_joint5
  - panda_joint6
  - panda_joint7
position: [-0.056019437793593294, 0.08768494009326883, 0.045692190346487756, -2.0169725358180983, -0.01159334967709334, 2.1390387610594432, 0.7998855982278277]
velocity: [0.17175171227915928, -0.15684678498144777, -0.08183322952123938, 0.7422733674939046, 0.021382244455901606, -0.9585773784476235, 0.00025030249515256564]
acceleration: []
effort: []
---
header: 
  seq: 12
  stamp: 
    secs: 1650324056
    nsecs: 251055479
  frame_id: ''
mode: 2
names: 
  - panda_joint1
  - panda_joint2
  - panda_joint3
  - panda_joint4
  - panda_joint5
  - panda_joint6
  - panda_joint7
position: [-0.056019437793593294, 0.08768494009326883, 0.045692190346487756, -2.0169725358180983, -0.01159334967709334, 2.1390387610594432, 0.7998855982278277]
velocity: [0.1668518867733655, -0.1521907870999289, -0.07949915975604709, 0.7205542301805141, 0.020840054678977385, -0.9306536894953652, 0.0002474570881236815]
acceleration: []
effort: []
---
header: 
  seq: 13
  stamp: 
    secs: 1650324056
    nsecs: 276684999
  frame_id: ''
mode: 2
names: 
  - panda_joint1
  - panda_joint2
  - panda_joint3
  - panda_joint4
  - panda_joint5
  - panda_joint6
  - panda_joint7
position: [-0.056019437793593294, 0.08768494009326883, 0.045692190346487756, -2.0169725358180983, -0.01159334967709334, 2.1390387610594432, 0.7998855982278277]
velocity: [0.16215304634283423, -0.14783264235820945, -0.07749989332809068, 0.7004457797627519, 0.020320450463352003, -0.9044367659368513, 0.00024250200550479661]
acceleration: []
effort: []
---
header: 
  seq: 14
  stamp: 
    secs: 1650324056
    nsecs: 302529335
  frame_id: ''
mode: 2
names: 
  - panda_joint1
  - panda_joint2
  - panda_joint3
  - panda_joint4
  - panda_joint5
  - panda_joint6
  - panda_joint7
position: [-0.056019437793593294, 0.08768494009326883, 0.045692190346487756, -2.0169725358180983, -0.01159334967709334, 2.1390387610594432, 0.7998855982278277]
velocity: [0.15647828164886624, -0.14279071372132476, -0.0749257082313492, 0.6762565440375763, 0.019717624612084525, -0.8736466575093003, 0.00025029624362549185]
acceleration: []
effort: []
---
header: 
  seq: 15
  stamp: 
    secs: 1650324056
    nsecs: 328712224
  frame_id: ''
mode: 2
names: 
  - panda_joint1
  - panda_joint2
  - panda_joint3
  - panda_joint4
  - panda_joint5
  - panda_joint6
  - panda_joint7
position: [-0.056019437793593294, 0.08768494009326883, 0.045692190346487756, -2.0169725358180983, -0.01159334967709334, 2.1390387610594432, 0.7998855982278277]
velocity: [0.15072771213434538, -0.1377890967227709, -0.07227564664625832, 0.6515251539014422, 0.01906941092374177, -0.840891571253576, 0.0002460326221438436]
acceleration: []
effort: []
---
header: 
  seq: 16
  stamp: 
    secs: 1650324056
    nsecs: 354547262
  frame_id: ''
mode: 2
names: 
  - panda_joint1
  - panda_joint2
  - panda_joint3
  - panda_joint4
  - panda_joint5
  - panda_joint6
  - panda_joint7
position: [-0.056019437793593294, 0.08768494009326883, 0.045692190346487756, -2.0169725358180983, -0.01159334967709334, 2.1390387610594432, 0.7998855982278277]
velocity: [0.14548045991696532, -0.1328850060619429, -0.06962590098842547, 0.6283653950645176, 0.01846243301520418, -0.8116035370430437, 0.00024171487583135587]
acceleration: []
effort: []
---
header: 
  seq: 17
  stamp: 
    secs: 1650324056
    nsecs: 380282878
  frame_id: ''
mode: 2
names: 
  - panda_joint1
  - panda_joint2
  - panda_joint3
  - panda_joint4
  - panda_joint5
  - panda_joint6
  - panda_joint7
position: [-0.056019437793593294, 0.08768494009326883, 0.045692190346487756, -2.0169725358180983, -0.01159334967709334, 2.1390387610594432, 0.7998855982278277]
velocity: [0.13942643817110453, -0.12733322340351336, -0.06649603604586084, 0.6021944973150553, 0.01781987137372319, -0.7771144627388304, 0.0002455974296555752]
acceleration: []
effort: []
---
header: 
  seq: 18
  stamp: 
    secs: 1650324056
    nsecs: 406208753
  frame_id: ''
mode: 2
names: 
  - panda_joint1
  - panda_joint2
  - panda_joint3
  - panda_joint4
  - panda_joint5
  - panda_joint6
  - panda_joint7
position: [-0.056019437793593294, 0.08768494009326883, 0.045692190346487756, -2.0169725358180983, -0.01159334967709334, 2.1390387610594432, 0.7998855982278277]
velocity: [0.13375123690391863, -0.12179822473543724, -0.06371421085128189, 0.5767639720497133, 0.017100168297788067, -0.744952303638649, 0.00023647406803717352]
acceleration: []
effort: []
---
header: 
  seq: 19
  stamp: 
    secs: 1650324056
    nsecs: 431690216
  frame_id: ''
mode: 2
names: 
  - panda_joint1
  - panda_joint2
  - panda_joint3
  - panda_joint4
  - panda_joint5
  - panda_joint6
  - panda_joint7
position: [-0.056019437793593294, 0.08768494009326883, 0.045692190346487756, -2.0169725358180983, -0.01159334967709334, 2.1390387610594432, 0.7998855982278277]
velocity: [0.1275985673777678, -0.11632684280889664, -0.06075749052448894, 0.5506108961223051, 0.016343304419977712, -0.7107744073573921, 0.00023649717444640395]
acceleration: []
effort: []
---
header: 
  seq: 20
  stamp: 
    secs: 1650324056
    nsecs: 457431554
  frame_id: ''
mode: 2
names: 
  - panda_joint1
  - panda_joint2
  - panda_joint3
  - panda_joint4
  - panda_joint5
  - panda_joint6
  - panda_joint7
position: [-0.056019437793593294, 0.08768494009326883, 0.045692190346487756, -2.0169725358180983, -0.01159334967709334, 2.1390387610594432, 0.7998855982278277]
velocity: [0.12140708319691938, -0.11060881416647692, -0.05779089689299165, 0.5234977109107111, 0.015549661096585912, -0.6763709721939031, 0.00024550912216603216]
acceleration: []
effort: []
---
header: 
  seq: 21
  stamp: 
    secs: 1650324056
    nsecs: 482901334
  frame_id: ''
mode: 2
names: 
  - panda_joint1
  - panda_joint2
  - panda_joint3
  - panda_joint4
  - panda_joint5
  - panda_joint6
  - panda_joint7
position: [-0.056019437793593294, 0.08768494009326883, 0.045692190346487756, -2.0169725358180983, -0.01159334967709334, 2.1390387610594432, 0.7998855982278277]
velocity: [0.11554199369156654, -0.10531375048389287, -0.05505972271324152, 0.49821530685892457, 0.014862709581948037, -0.6431172882662404, 0.00023792132617161954]
acceleration: []
effort: []
---
header: 
  seq: 22
  stamp: 
    secs: 1650324056
    nsecs: 508380174
  frame_id: ''
mode: 2
names: 
  - panda_joint1
  - panda_joint2
  - panda_joint3
  - panda_joint4
  - panda_joint5
  - panda_joint6
  - panda_joint7
position: [-0.056019437793593294, 0.08768494009326883, 0.045692190346487756, -2.0169725358180983, -0.01159334967709334, 2.1390387610594432, 0.7998855982278277]
velocity: [0.10920537145720069, -0.09954743768600804, -0.05231256130695037, 0.4711286754019244, 0.014069255858946278, -0.6083923613780451, 0.00024239626858002516]
acceleration: []
effort: []
---
header: 
  seq: 23
  stamp: 
    secs: 1650324056
    nsecs: 533868789
  frame_id: ''
mode: 2
names: 
  - panda_joint1
  - panda_joint2
  - panda_joint3
  - panda_joint4
  - panda_joint5
  - panda_joint6
  - panda_joint7
position: [-0.056019437793593294, 0.08768494009326883, 0.045692190346487756, -2.0169725358180983, -0.01159334967709334, 2.1390387610594432, 0.7998855982278277]
velocity: [0.10283887259555148, -0.09398347108965563, -0.049442935902820104, 0.44470822563688506, 0.013318633474957313, -0.5740005323676001, 0.00024076866441324896]
acceleration: []
effort: []
---
header: 
  seq: 24
  stamp: 
    secs: 1650324056
    nsecs: 559788942
  frame_id: ''
mode: 2
names: 
  - panda_joint1
  - panda_joint2
  - panda_joint3
  - panda_joint4
  - panda_joint5
  - panda_joint6
  - panda_joint7
position: [-0.056019437793593294, 0.08768494009326883, 0.045692190346487756, -2.0169725358180983, -0.01159334967709334, 2.1390387610594432, 0.7998855982278277]
velocity: [0.09673612726850864, -0.08847417769704785, -0.04656833873313433, 0.4178114462457869, 0.012567740396922768, -0.5398026292203042, 0.00024076866441324896]
acceleration: []
effort: []
---
header: 
  seq: 25
  stamp: 
    secs: 1650324056
    nsecs: 585294485
  frame_id: ''
mode: 2
names: 
  - panda_joint1
  - panda_joint2
  - panda_joint3
  - panda_joint4
  - panda_joint5
  - panda_joint6
  - panda_joint7
position: [-0.056019437793593294, 0.08768494009326883, 0.045692190346487756, -2.0169725358180983, -0.01159334967709334, 2.1390387610594432, 0.7998855982278277]
velocity: [0.0913177516945251, -0.08350309384661037, -0.04371545024070456, 0.3939185735084636, 0.011873188700638504, -0.5083002318251122, 0.00023364789535640362]
acceleration: []
effort: []
---
header: 
  seq: 26
  stamp: 
    secs: 1650324056
    nsecs: 611441850
  frame_id: ''
mode: 2
names: 
  - panda_joint1
  - panda_joint2
  - panda_joint3
  - panda_joint4
  - panda_joint5
  - panda_joint6
  - panda_joint7
position: [-0.056019437793593294, 0.08768494009326883, 0.045692190346487756, -2.0169725358180983, -0.01159334967709334, 2.1390387610594432, 0.7998855982278277]
velocity: [0.0853117117092628, -0.07798995940441844, -0.040688435981776176, 0.36791171145161883, 0.011134980053844307, -0.4750893115238113, 0.00024239615687182692]
acceleration: []
effort: []
---
header: 
  seq: 27
  stamp: 
    secs: 1650324056
    nsecs: 637283563
  frame_id: ''
mode: 2
names: 
  - panda_joint1
  - panda_joint2
  - panda_joint3
  - panda_joint4
  - panda_joint5
  - panda_joint6
  - panda_joint7
position: [-0.056019437793593294, 0.08768494009326883, 0.045692190346487756, -2.0169725358180983, -0.01159334967709334, 2.1390387610594432, 0.7998855982278277]
velocity: [0.07914539411972453, -0.0722614476321212, -0.03776386867597664, 0.34157994279360704, 0.010341098699511818, -0.4407033287186395, 0.00023673157656367572]
acceleration: []
effort: []
---
header: 
  seq: 28
  stamp: 
    secs: 1650324056
    nsecs: 662809610
  frame_id: ''
mode: 2
names: 
  - panda_joint1
  - panda_joint2
  - panda_joint3
  - panda_joint4
  - panda_joint5
  - panda_joint6
  - panda_joint7
position: [-0.056019437793593294, 0.08768494009326883, 0.045692190346487756, -2.0169725358180983, -0.01159334967709334, 2.1390387610594432, 0.7998855982278277]
velocity: [0.07331859718069053, -0.06687243125460594, -0.035098895659863655, 0.31627677248168196, 0.00957321617164637, -0.40880283719033716, 0.00023131042642510202]
acceleration: []
effort: []
---
header: 
  seq: 29
  stamp: 
    secs: 1650324056
    nsecs: 688490867
  frame_id: ''
mode: 2
names: 
  - panda_joint1
  - panda_joint2
  - panda_joint3
  - panda_joint4
  - panda_joint5
  - panda_joint6
  - panda_joint7
position: [-0.056019437793593294, 0.08768494009326883, 0.045692190346487756, -2.0169725358180983, -0.01159334967709334, 2.1390387610594432, 0.7998855982278277]
velocity: [0.06806275124825992, -0.062137973034542326, -0.03255960914022675, 0.2938413203573109, 0.008949421711020806, -0.3792880138900787, 0.00023428367906164205]
acceleration: []
effort: []
---
header: 
  seq: 30
  stamp: 
    secs: 1650324056
    nsecs: 714307308
  frame_id: ''
mode: 2
names: 
  - panda_joint1
  - panda_joint2
  - panda_joint3
  - panda_joint4
  - panda_joint5
  - panda_joint6
  - panda_joint7
position: [-0.056019437793593294, 0.08768494009326883, 0.045692190346487756, -2.0169725358180983, -0.01159334967709334, 2.1390387610594432, 0.7998855982278277]
velocity: [0.062367801855197406, -0.05687338980826605, -0.029878662907055518, 0.26897949664485665, 0.008213646725844771, -0.34771190256057816, 0.00023570783270732143]
acceleration: []
effort: []
---
header: 
  seq: 31
  stamp: 
    secs: 1650324056
    nsecs: 740079164
  frame_id: ''
mode: 2
names: 
  - panda_joint1
  - panda_joint2
  - panda_joint3
  - panda_joint4
  - panda_joint5
  - panda_joint6
  - panda_joint7
position: [-0.056019437793593294, 0.08768494009326883, 0.045692190346487756, -2.0169725358180983, -0.01159334967709334, 2.1390387610594432, 0.7998855982278277]
velocity: [0.05699331644136431, -0.0520265116714289, -0.027472106715040114, 0.24612715527014117, 0.00755779613729929, -0.317695914548322, 0.0002283836139573836]
acceleration: []
effort: []
---
header: 
  seq: 32
  stamp: 
    secs: 1650324056
    nsecs: 765606880
  frame_id: ''
mode: 2
names: 
  - panda_joint1
  - panda_joint2
  - panda_joint3
  - panda_joint4
  - panda_joint5
  - panda_joint6
  - panda_joint7
position: [-0.056019437793593294, 0.08768494009326883, 0.045692190346487756, -2.0169725358180983, -0.01159334967709334, 2.1390387610594432, 0.7998855982278277]
velocity: [0.0520368758085101, -0.0475871686730439, -0.025185182526209736, 0.2251916022811149, 0.006960219512024154, -0.29085492833919213, 0.00022838263281110827]
acceleration: []
effort: []
---
header: 
  seq: 33
  stamp: 
    secs: 1650324056
    nsecs: 791407585
  frame_id: ''
mode: 2
names: 
  - panda_joint1
  - panda_joint2
  - panda_joint3
  - panda_joint4
  - panda_joint5
  - panda_joint6
  - panda_joint7
position: [-0.056019437793593294, 0.08768494009326883, 0.045692190346487756, -2.0169725358180983, -0.01159334967709334, 2.1390387610594432, 0.7998855982278277]
velocity: [0.046878985482441037, -0.042723652681818866, -0.022685268537927575, 0.20249828351934784, 0.006234268833260927, -0.26202126898531786, 0.0002397418750657021]
acceleration: []
effort: []
---
header: 
  seq: 34
  stamp: 
    secs: 1650324056
    nsecs: 817056655
  frame_id: ''
mode: 2
names: 
  - panda_joint1
  - panda_joint2
  - panda_joint3
  - panda_joint4
  - panda_joint5
  - panda_joint6
  - panda_joint7
position: [-0.056019437793593294, 0.08768494009326883, 0.045692190346487756, -2.0169725358180983, -0.01159334967709334, 2.1390387610594432, 0.7998855982278277]
velocity: [0.0421023165293679, -0.038522056722169754, -0.02021312794416728, 0.18193061054781756, 0.005659482985126846, -0.23461322631110892, 0.00022814519134017885]
acceleration: []
effort: []
---
header: 
  seq: 35
  stamp: 
    secs: 1650324056
    nsecs: 842494487
  frame_id: ''
mode: 2
names: 
  - panda_joint1
  - panda_joint2
  - panda_joint3
  - panda_joint4
  - panda_joint5
  - panda_joint6
  - panda_joint7
position: [-0.056019437793593294, 0.08768494009326883, 0.045692190346487756, -2.0169725358180983, -0.01159334967709334, 2.1390387610594432, 0.7998855982278277]
velocity: [0.03780086175464735, -0.034468924940036845, -0.017925368880434552, 0.16222513162101615, 0.005059344025372788, -0.2095712448696876, 0.0002187290832247335]
acceleration: []
effort: []
---
header: 
  seq: 36
  stamp: 
    secs: 1650324056
    nsecs: 868047475
  frame_id: ''
mode: 2
names: 
  - panda_joint1
  - panda_joint2
  - panda_joint3
  - panda_joint4
  - panda_joint5
  - panda_joint6
  - panda_joint7
position: [-0.056019437793593294, 0.08768494009326883, 0.045692190346487756, -2.0169725358180983, -0.01159334967709334, 2.1390387610594432, 0.7998855982278277]
velocity: [0.03333135165268068, -0.03050307504144923, -0.015611613271117313, 0.14324426551975966, 0.004509035833973994, -0.18484843544976126, 0.00023195194535974295]
acceleration: []
effort: []
---
header: 
  seq: 37
  stamp: 
    secs: 1650324056
    nsecs: 893675565
  frame_id: ''
mode: 2
names: 
  - panda_joint1
  - panda_joint2
  - panda_joint3
  - panda_joint4
  - panda_joint5
  - panda_joint6
  - panda_joint7
position: [-0.056019437793593294, 0.08768494009326883, 0.045692190346487756, -2.0169725358180983, -0.01159334967709334, 2.1390387610594432, 0.7998855982278277]
velocity: [0.029087247840927588, -0.02640443195059923, -0.013575461453845694, 0.12470725034421726, 0.003938537347272175, -0.16068338767176815, 0.00022015181514434268]
acceleration: []
effort: []
---
header: 
  seq: 38
  stamp: 
    secs: 1650324056
    nsecs: 919337749
  frame_id: ''
mode: 2
names: 
  - panda_joint1
  - panda_joint2
  - panda_joint3
  - panda_joint4
  - panda_joint5
  - panda_joint6
  - panda_joint7
position: [-0.056019437793593294, 0.08768494009326883, 0.045692190346487756, -2.0169725358180983, -0.01159334967709334, 2.1390387610594432, 0.7998855982278277]
velocity: [0.02495898508541259, -0.022663726571873415, -0.011752999225240613, 0.10729831569699755, 0.0033746102171370684, -0.13880122040568743, 0.00021722226094156305]
acceleration: []
effort: []
---
header: 
  seq: 39
  stamp: 
    secs: 1650324056
    nsecs: 944760560
  frame_id: ''
mode: 2
names: 
  - panda_joint1
  - panda_joint2
  - panda_joint3
  - panda_joint4
  - panda_joint5
  - panda_joint6
  - panda_joint7
position: [-0.056019437793593294, 0.08768494009326883, 0.045692190346487756, -2.0169725358180983, -0.01159334967709334, 2.1390387610594432, 0.7998855982278277]
velocity: [0.02110275409591332, -0.018988321187347043, -0.009959135531047908, 0.09075753711108758, 0.0028420822676290605, -0.11720790391672775, 0.00020776805865962977]
acceleration: []
effort: []
---
header: 
  seq: 40
  stamp: 
    secs: 1650324056
    nsecs: 970491886
  frame_id: ''
mode: 2
names: 
  - panda_joint1
  - panda_joint2
  - panda_joint3
  - panda_joint4
  - panda_joint5
  - panda_joint6
  - panda_joint7
position: [-0.056019437793593294, 0.08768494009326883, 0.045692190346487756, -2.0169725358180983, -0.01159334967709334, 2.1390387610594432, 0.7998855982278277]
velocity: [0.017424068059165118, -0.015620456009376612, -0.00828554301990278, 0.07533977259155655, 0.0023577477474324613, -0.09734809573544956, 0.00022078759802757197]
acceleration: []
effort: []
---
header: 
  seq: 41
  stamp: 
    secs: 1650324056
    nsecs: 995959043
  frame_id: ''
mode: 2
names: 
  - panda_joint1
  - panda_joint2
  - panda_joint3
  - panda_joint4
  - panda_joint5
  - panda_joint6
  - panda_joint7
position: [-0.056019437793593294, 0.08768494009326883, 0.045692190346487756, -2.0169725358180983, -0.01159334967709334, 2.1390387610594432, 0.7998855982278277]
velocity: [0.013970118398378556, -0.01243769383731888, -0.006677217569826529, 0.05980765083026762, 0.0018471620497983814, -0.07775745696477676, 0.00021037665340495337]
acceleration: []
effort: []
---
header: 
  seq: 42
  stamp: 
    secs: 1650324057
    nsecs:  21530389
  frame_id: ''
mode: 2
names: 
  - panda_joint1
  - panda_joint2
  - panda_joint3
  - panda_joint4
  - panda_joint5
  - panda_joint6
  - panda_joint7
position: [-0.056019437793593294, 0.08768494009326883, 0.045692190346487756, -2.0169725358180983, -0.01159334967709334, 2.1390387610594432, 0.7998855982278277]
velocity: [0.01091915367214788, -0.009711186040839082, -0.005211853887899696, 0.04660999335419769, 0.0014511695669696101, -0.06063714675459808, 0.00021485143415200803]
acceleration: []
effort: []
---
header: 
  seq: 43
  stamp: 
    secs: 1650324057
    nsecs:  47118663
  frame_id: ''
mode: 2
names: 
  - panda_joint1
  - panda_joint2
  - panda_joint3
  - panda_joint4
  - panda_joint5
  - panda_joint6
  - panda_joint7
position: [-0.056019437793593294, 0.08768494009326883, 0.045692190346487756, -2.0169725358180983, -0.01159334967709334, 2.1390387610594432, 0.7998855982278277]
velocity: [0.007655497272980677, -0.006842338085227043, -0.003665787229215346, 0.03315320827812496, 0.0010239031271056754, -0.04245046206967862, 0.0002054350311402331]
acceleration: []
effort: []
---
header: 
  seq: 44
  stamp: 
    secs: 1650324057
    nsecs:  72544813
  frame_id: ''
mode: 2
names: 
  - panda_joint1
  - panda_joint2
  - panda_joint3
  - panda_joint4
  - panda_joint5
  - panda_joint6
  - panda_joint7
position: [-0.056019437793593294, 0.08768494009326883, 0.045692190346487756, -2.0169725358180983, -0.01159334967709334, 2.1390387610594432, 0.7998855982278277]
velocity: [0.004919344869709463, -0.004271298175435996, -0.0023646676284991897, 0.020784297160519216, 0.0006787256582007795, -0.02709574448979213, 0.000203289263778883]
acceleration: []
effort: []
---
header: 
  seq: 45
  stamp: 
    secs: 1650324057
    nsecs:  97959995
  frame_id: ''
mode: 2
names: 
  - panda_joint1
  - panda_joint2
  - panda_joint3
  - panda_joint4
  - panda_joint5
  - panda_joint6
  - panda_joint7
position: [-0.056019437793593294, 0.08768494009326883, 0.045692190346487756, -2.0169725358180983, -0.01159334967709334, 2.1390387610594432, 0.7998855982278277]
velocity: [0.0021138969916640604, -0.0017964196900179565, -0.0010446188511120153, 0.008859322303603978, 0.00031009650688617707, -0.011602689836107238, 0.00019272866712016778]
acceleration: []
effort: []
---
header: 
  seq: 46
  stamp: 
    secs: 1650324057
    nsecs: 123992919
  frame_id: ''
mode: 2
names: 
  - panda_joint1
  - panda_joint2
  - panda_joint3
  - panda_joint4
  - panda_joint5
  - panda_joint6
  - panda_joint7
position: [-0.056019437793593294, 0.08768494009326883, 0.045692190346487756, -2.0169725358180983, -0.01159334967709334, 2.1390387610594432, 0.7998855982278277]
velocity: [-0.0004762282023180603, 0.0006101398980841279, 0.00026442035675763425, -0.0021565890328187898, -5.528152897505209e-06, 0.0027104366305694683, 0.00019435492489128237]
acceleration: []
effort: []
---
header: 
  seq: 47
  stamp: 
    secs: 1650324057
    nsecs: 149239301
  frame_id: ''
mode: 2
names: 
  - panda_joint1
  - panda_joint2
  - panda_joint3
  - panda_joint4
  - panda_joint5
  - panda_joint6
  - panda_joint7
position: [-0.056019437793593294, 0.08768494009326883, 0.045692190346487756, -2.0169725358180983, -0.01159334967709334, 2.1390387610594432, 0.7998855982278277]
velocity: [0.0, 0.0006101398980841279, 0.00026442035675763425, -0.0021565890328187898, -5.528152897505209e-06, 0.0027104366305694683, 0.00019435492489128237]
acceleration: []
effort: []
---
header: 
  seq: 48
  stamp: 
    secs: 1650324057
    nsecs: 149504184
  frame_id: ''
mode: 2
names: 
  - panda_joint1
  - panda_joint2
  - panda_joint3
  - panda_joint4
  - panda_joint5
  - panda_joint6
  - panda_joint7
position: [-0.056019437793593294, 0.08768494009326883, 0.045692190346487756, -2.0169725358180983, -0.01159334967709334, 2.1390387610594432, 0.7998855982278277]
velocity: [0.0, 0.0, 0.00026442035675763425, -0.0021565890328187898, -5.528152897505209e-06, 0.0027104366305694683, 0.00019435492489128237]
acceleration: []
effort: []
---
header: 
  seq: 49
  stamp: 
    secs: 1650324057
    nsecs: 149563550
  frame_id: ''
mode: 2
names: 
  - panda_joint1
  - panda_joint2
  - panda_joint3
  - panda_joint4
  - panda_joint5
  - panda_joint6
  - panda_joint7
position: [-0.056019437793593294, 0.08768494009326883, 0.045692190346487756, -2.0169725358180983, -0.01159334967709334, 2.1390387610594432, 0.7998855982278277]
velocity: [0.0, 0.0, 0.0, -0.0021565890328187898, -5.528152897505209e-06, 0.0027104366305694683, 0.00019435492489128237]
acceleration: []
effort: []
---
header: 
  seq: 50
  stamp: 
    secs: 1650324057
    nsecs: 149614334
  frame_id: ''
mode: 2
names: 
  - panda_joint1
  - panda_joint2
  - panda_joint3
  - panda_joint4
  - panda_joint5
  - panda_joint6
  - panda_joint7
position: [-0.056019437793593294, 0.08768494009326883, 0.045692190346487756, -2.0169725358180983, -0.01159334967709334, 2.1390387610594432, 0.7998855982278277]
velocity: [0.0, 0.0, 0.0, 0.0, -5.528152897505209e-06, 0.0027104366305694683, 0.00019435492489128237]
acceleration: []
effort: []
---
header: 
  seq: 51
  stamp: 
    secs: 1650324057
    nsecs: 149725437
  frame_id: ''
mode: 2
names: 
  - panda_joint1
  - panda_joint2
  - panda_joint3
  - panda_joint4
  - panda_joint5
  - panda_joint6
  - panda_joint7
position: [-0.056019437793593294, 0.08768494009326883, 0.045692190346487756, -2.0169725358180983, -0.01159334967709334, 2.1390387610594432, 0.7998855982278277]
velocity: [0.0, 0.0, 0.0, 0.0, 0.0, 0.0027104366305694683, 0.00019435492489128237]
acceleration: []
effort: []
---
header: 
  seq: 52
  stamp: 
    secs: 1650324057
    nsecs: 149776220
  frame_id: ''
mode: 2
names: 
  - panda_joint1
  - panda_joint2
  - panda_joint3
  - panda_joint4
  - panda_joint5
  - panda_joint6
  - panda_joint7
position: [-0.056019437793593294, 0.08768494009326883, 0.045692190346487756, -2.0169725358180983, -0.01159334967709334, 2.1390387610594432, 0.7998855982278277]
velocity: [0.0, 0.0, 0.0, 0.0, 0.0, 0.0, 0.00019435492489128237]
acceleration: []
effort: []
---
header: 
  seq: 53
  stamp: 
    secs: 1650324057
    nsecs: 150080919
  frame_id: ''
mode: 2
names: 
  - panda_joint1
  - panda_joint2
  - panda_joint3
  - panda_joint4
  - panda_joint5
  - panda_joint6
  - panda_joint7
position: [-0.056019437793593294, 0.08768494009326883, 0.045692190346487756, -2.0169725358180983, -0.01159334967709334, 2.1390387610594432, 0.7998855982278277]
velocity: [0.0, 0.0, 0.0, 0.0, 0.0, 0.0, 0.0]
acceleration: []
effort: []
---
header: 
  seq: 54
  stamp: 
    secs: 1650324057
    nsecs: 150381565
  frame_id: ''
mode: 2
names: 
  - panda_joint1
  - panda_joint2
  - panda_joint3
  - panda_joint4
  - panda_joint5
  - panda_joint6
  - panda_joint7
position: [-0.056019437793593294, 0.08768494009326883, 0.045692190346487756, -2.0169725358180983, -0.01159334967709334, 2.1390387610594432, 0.7998855982278277]
velocity: [-0.08280780362377795, 0.2628864602804294, 0.04135557308025389, -0.6122039060138387, 0.05964593929395544, 0.8160119820484195, 0.00019435481722074321]
acceleration: []
effort: []
---
header: 
  seq: 55
  stamp: 
    secs: 1650324057
    nsecs: 175867557
  frame_id: ''
mode: 2
names: 
  - panda_joint1
  - panda_joint2
  - panda_joint3
  - panda_joint4
  - panda_joint5
  - panda_joint6
  - panda_joint7
position: [-0.056019437793593294, 0.08768494009326883, 0.045692190346487756, -2.0169725358180983, -0.01159334967709334, 2.1390387610594432, 0.7998855982278277]
velocity: [-0.08476081938716712, 0.26425031046197267, 0.042340751290096505, -0.6207050141581654, 0.059377876469401354, 0.8268643415752748, 0.00018481818179338916]
acceleration: []
effort: []
---
header: 
  seq: 56
  stamp: 
    secs: 1650324057
    nsecs: 201319456
  frame_id: ''
mode: 2
names: 
  - panda_joint1
  - panda_joint2
  - panda_joint3
  - panda_joint4
  - panda_joint5
  - panda_joint6
  - panda_joint7
position: [-0.056019437793593294, 0.08768494009326883, 0.045692190346487756, -2.0169725358180983, -0.01159334967709334, 2.1390387610594432, 0.7998855982278277]
velocity: [-0.08637259441691547, 0.2651524755873227, 0.04315016200201409, -0.6265570740124624, 0.05893171448182003, 0.8340567217490644, 0.00018766648901857863]
acceleration: []
effort: []
---
header: 
  seq: 57
  stamp: 
    secs: 1650324057
    nsecs: 226911067
  frame_id: ''
mode: 2
names: 
  - panda_joint1
  - panda_joint2
  - panda_joint3
  - panda_joint4
  - panda_joint5
  - panda_joint6
  - panda_joint7
position: [-0.056019437793593294, 0.08768494009326883, 0.045692190346487756, -2.0169725358180983, -0.01159334967709334, 2.1390387610594432, 0.7998855982278277]
velocity: [-0.08762725850199587, 0.2654684048568881, 0.04371881293955693, -0.6297856139761748, 0.05833512462806093, 0.8380025325612488, 0.000182521453037765]
acceleration: []
effort: []
---
header: 
  seq: 58
  stamp: 
    secs: 1650324057
    nsecs: 252391338
  frame_id: ''
mode: 2
names: 
  - panda_joint1
  - panda_joint2
  - panda_joint3
  - panda_joint4
  - panda_joint5
  - panda_joint6
  - panda_joint7
position: [-0.056019437793593294, 0.08768494009326883, 0.045692190346487756, -2.0169725358180983, -0.01159334967709334, 2.1390387610594432, 0.7998855982278277]
velocity: [-0.08863524385434811, 0.2647489176003336, 0.04413974060944629, -0.630909076915751, 0.05743728522261436, 0.8386886884786913, 0.0001867589089608046]
acceleration: []
effort: []
---
header: 
  seq: 59
  stamp: 
    secs: 1650324057
    nsecs: 278090000
  frame_id: ''
mode: 2
names: 
  - panda_joint1
  - panda_joint2
  - panda_joint3
  - panda_joint4
  - panda_joint5
  - panda_joint6
  - panda_joint7
position: [-0.056019437793593294, 0.08768494009326883, 0.045692190346487756, -2.0169725358180983, -0.01159334967709334, 2.1390387610594432, 0.7998855982278277]
velocity: [-0.08916643641599285, 0.26256736008900455, 0.04438345114219483, -0.6295593099155665, 0.056421032193584165, 0.8368821040065724, 0.0001708401896687306]
acceleration: []
effort: []
---
header: 
  seq: 60
  stamp: 
    secs: 1650324057
    nsecs: 303755998
  frame_id: ''
mode: 2
names: 
  - panda_joint1
  - panda_joint2
  - panda_joint3
  - panda_joint4
  - panda_joint5
  - panda_joint6
  - panda_joint7
position: [-0.056019437793593294, 0.08768494009326883, 0.045692190346487756, -2.0169725358180983, -0.01159334967709334, 2.1390387610594432, 0.7998855982278277]
velocity: [-0.08928084742540258, 0.2596798065553904, 0.04439511874918053, -0.6257888507154812, 0.05528437240581069, 0.8318871672827033, 0.00016562645515927343]
acceleration: []
effort: []
---
header: 
  seq: 61
  stamp: 
    secs: 1650324057
    nsecs: 329238891
  frame_id: ''
mode: 2
names: 
  - panda_joint1
  - panda_joint2
  - panda_joint3
  - panda_joint4
  - panda_joint5
  - panda_joint6
  - panda_joint7
position: [-0.056019437793593294, 0.08768494009326883, 0.045692190346487756, -2.0169725358180983, -0.01159334967709334, 2.1390387610594432, 0.7998855982278277]
velocity: [-0.08922167154395212, 0.2563797397343549, 0.044357955899772095, -0.6206008167665931, 0.05414639644312283, 0.8246820479573431, 0.00016329134885251229]
acceleration: []
effort: []
---
header: 
  seq: 62
  stamp: 
    secs: 1650324057
    nsecs: 354670524
  frame_id: ''
mode: 2
names: 
  - panda_joint1
  - panda_joint2
  - panda_joint3
  - panda_joint4
  - panda_joint5
  - panda_joint6
  - panda_joint7
position: [-0.056019437793593294, 0.08768494009326883, 0.045692190346487756, -2.0169725358180983, -0.01159334967709334, 2.1390387610594432, 0.7998855982278277]
velocity: [-0.08874745259377445, 0.25132384158925697, 0.04407258281944065, -0.6116801647065815, 0.052475374150542986, 0.812164538869482, 0.00016529487903649276]
acceleration: []
effort: []
---
header: 
  seq: 63
  stamp: 
    secs: 1650324057
    nsecs: 380332946
  frame_id: ''
mode: 2
names: 
  - panda_joint1
  - panda_joint2
  - panda_joint3
  - panda_joint4
  - panda_joint5
  - panda_joint6
  - panda_joint7
position: [-0.056019437793593294, 0.08768494009326883, 0.045692190346487756, -2.0169725358180983, -0.01159334967709334, 2.1390387610594432, 0.7998855982278277]
velocity: [-0.08808701078686441, 0.2463617417162128, 0.04365342346966254, -0.602102560890156, 0.05095209495804575, 0.7992718906108189, 0.0001567249979330665]
acceleration: []
effort: []
---
header: 
  seq: 64
  stamp: 
    secs: 1650324057
    nsecs: 405745744
  frame_id: ''
mode: 2
names: 
  - panda_joint1
  - panda_joint2
  - panda_joint3
  - panda_joint4
  - panda_joint5
  - panda_joint6
  - panda_joint7
position: [-0.056019437793593294, 0.08768494009326883, 0.045692190346487756, -2.0169725358180983, -0.01159334967709334, 2.1390387610594432, 0.7998855982278277]
velocity: [-0.08707815117235483, 0.24049951572238915, 0.043135235160157076, -0.5905280617367943, 0.04927083154244427, 0.7837308711820015, 0.0001553003721770363]
acceleration: []
effort: []
---
header: 
  seq: 65
  stamp: 
    secs: 1650324057
    nsecs: 431725263
  frame_id: ''
mode: 2
names: 
  - panda_joint1
  - panda_joint2
  - panda_joint3
  - panda_joint4
  - panda_joint5
  - panda_joint6
  - panda_joint7
position: [-0.056019437793593294, 0.08768494009326883, 0.045692190346487756, -2.0169725358180983, -0.01159334967709334, 2.1390387610594432, 0.7998855982278277]
velocity: [-0.08582366715259285, 0.23413618060360206, 0.042482143399532865, -0.5775256979613346, 0.04758488152607509, 0.7658604884781677, 0.00014475766476484964]
acceleration: []
effort: []
---
header: 
  seq: 66
  stamp: 
    secs: 1650324057
    nsecs: 457353115
  frame_id: ''
mode: 2
names: 
  - panda_joint1
  - panda_joint2
  - panda_joint3
  - panda_joint4
  - panda_joint5
  - panda_joint6
  - panda_joint7
position: [-0.056019437793593294, 0.08768494009326883, 0.045692190346487756, -2.0169725358180983, -0.01159334967709334, 2.1390387610594432, 0.7998855982278277]
velocity: [-0.08426203461019732, 0.22765058031884916, 0.041800272915797285, -0.5638293053112577, 0.04589470266948663, 0.7473288615151312, 0.00014424287169112482]
acceleration: []
effort: []
---
header: 
  seq: 67
  stamp: 
    secs: 1650324057
    nsecs: 482807874
  frame_id: ''
mode: 2
names: 
  - panda_joint1
  - panda_joint2
  - panda_joint3
  - panda_joint4
  - panda_joint5
  - panda_joint6
  - panda_joint7
position: [-0.056019437793593294, 0.08768494009326883, 0.045692190346487756, -2.0169725358180983, -0.01159334967709334, 2.1390387610594432, 0.7998855982278277]
velocity: [-0.08253479991003335, 0.22123119800248472, 0.04103993151239101, -0.5496510427870342, 0.044335347317981715, 0.7285132454365528, 0.000134510583506664]
acceleration: []
effort: []
---
header: 
  seq: 68
  stamp: 
    secs: 1650324057
    nsecs: 508317708
  frame_id: ''
mode: 2
names: 
  - panda_joint1
  - panda_joint2
  - panda_joint3
  - panda_joint4
  - panda_joint5
  - panda_joint6
  - panda_joint7
position: [-0.056019437793593294, 0.08768494009326883, 0.045692190346487756, -2.0169725358180983, -0.01159334967709334, 2.1390387610594432, 0.7998855982278277]
velocity: [-0.08047579493631075, 0.21345863595555853, 0.04015414251314495, -0.5325554434264337, 0.042512366482875236, 0.7058619268731308, 0.00012501644427564962]
acceleration: []
effort: []
---
header: 
  seq: 69
  stamp: 
    secs: 1650324057
    nsecs: 534246206
  frame_id: ''
mode: 2
names: 
  - panda_joint1
  - panda_joint2
  - panda_joint3
  - panda_joint4
  - panda_joint5
  - panda_joint6
  - panda_joint7
position: [-0.056019437793593294, 0.08768494009326883, 0.045692190346487756, -2.0169725358180983, -0.01159334967709334, 2.1390387610594432, 0.7998855982278277]
velocity: [-0.07841090814917405, 0.2058233745720355, 0.03917311020914921, -0.5158931923637908, 0.040771606310749546, 0.6833961897040042, 0.00013072429408378383]
acceleration: []
effort: []
---
header: 
  seq: 70
  stamp: 
    secs: 1650324057
    nsecs: 559911727
  frame_id: ''
mode: 2
names: 
  - panda_joint1
  - panda_joint2
  - panda_joint3
  - panda_joint4
  - panda_joint5
  - panda_joint6
  - panda_joint7
position: [-0.056019437793593294, 0.08768494009326883, 0.045692190346487756, -2.0169725358180983, -0.01159334967709334, 2.1390387610594432, 0.7998855982278277]
velocity: [-0.07599918513535574, 0.19762316545207037, 0.03803770845450832, -0.49791511170939806, 0.03883617030037713, 0.6591801357029561, 0.00012048608241888026]
acceleration: []
effort: []
---
header: 
  seq: 71
  stamp: 
    secs: 1650324057
    nsecs: 585670232
  frame_id: ''
mode: 2
names: 
  - panda_joint1
  - panda_joint2
  - panda_joint3
  - panda_joint4
  - panda_joint5
  - panda_joint6
  - panda_joint7
position: [-0.056019437793593294, 0.08768494009326883, 0.045692190346487756, -2.0169725358180983, -0.01159334967709334, 2.1390387610594432, 0.7998855982278277]
velocity: [-0.07347140462265735, 0.18926353549182467, 0.036794576714081505, -0.47882798978736396, 0.03691345395479392, 0.6348975232943861, 0.00011101491583764833]
acceleration: []
effort: []
---
header: 
  seq: 72
  stamp: 
    secs: 1650324057
    nsecs: 611153364
  frame_id: ''
mode: 2
names: 
  - panda_joint1
  - panda_joint2
  - panda_joint3
  - panda_joint4
  - panda_joint5
  - panda_joint6
  - panda_joint7
position: [-0.056019437793593294, 0.08768494009326883, 0.045692190346487756, -2.0169725358180983, -0.01159334967709334, 2.1390387610594432, 0.7998855982278277]
velocity: [-0.07106006242207531, 0.18128041769369035, 0.03552492796775705, -0.4605530122817303, 0.035069060188993445, 0.609999278854322, 0.00010564319855177473]
acceleration: []
effort: []
---
header: 
  seq: 73
  stamp: 
    secs: 1650324057
    nsecs: 636688232
  frame_id: ''
mode: 2
names: 
  - panda_joint1
  - panda_joint2
  - panda_joint3
  - panda_joint4
  - panda_joint5
  - panda_joint6
  - panda_joint7
position: [-0.056019437793593294, 0.08768494009326883, 0.045692190346487756, -2.0169725358180983, -0.01159334967709334, 2.1390387610594432, 0.7998855982278277]
velocity: [-0.06844408082887, 0.17282966507435532, 0.0341479494097876, -0.4411321230562648, 0.03314339906692519, 0.5837073264043391, 9.784944189950018e-05]
acceleration: []
effort: []
---
header: 
  seq: 74
  stamp: 
    secs: 1650324057
    nsecs: 662140130
  frame_id: ''
mode: 2
names: 
  - panda_joint1
  - panda_joint2
  - panda_joint3
  - panda_joint4
  - panda_joint5
  - panda_joint6
  - panda_joint7
position: [-0.056019437793593294, 0.08768494009326883, 0.045692190346487756, -2.0169725358180983, -0.01159334967709334, 2.1390387610594432, 0.7998855982278277]
velocity: [-0.06560695005786053, 0.16445104109374714, 0.032683901058706694, -0.42108674179362326, 0.0313547411031799, 0.5577351538934368, 9.772228532400895e-05]
acceleration: []
effort: []
---
header: 
  seq: 75
  stamp: 
    secs: 1650324057
    nsecs: 687557458
  frame_id: ''
mode: 2
names: 
  - panda_joint1
  - panda_joint2
  - panda_joint3
  - panda_joint4
  - panda_joint5
  - panda_joint6
  - panda_joint7
position: [-0.056019437793593294, 0.08768494009326883, 0.045692190346487756, -2.0169725358180983, -0.01159334967709334, 2.1390387610594432, 0.7998855982278277]
velocity: [-0.06297705944813496, 0.1564369289428889, 0.03130212736674158, -0.4022122640209207, 0.029569836095824083, 0.5316545689650893, 7.769330115103834e-05]
acceleration: []
effort: []
---
header: 
  seq: 76
  stamp: 
    secs: 1650324057
    nsecs: 712964534
  frame_id: ''
mode: 2
names: 
  - panda_joint1
  - panda_joint2
  - panda_joint3
  - panda_joint4
  - panda_joint5
  - panda_joint6
  - panda_joint7
position: [-0.056019437793593294, 0.08768494009326883, 0.045692190346487756, -2.0169725358180983, -0.01159334967709334, 2.1390387610594432, 0.7998855982278277]
velocity: [-0.06031649492213199, 0.148367449177516, 0.030075560294912776, -0.38333351450604747, 0.027901819413528706, 0.5068541779635329, 8.065193058315323e-05]
acceleration: []
effort: []
---
header: 
  seq: 77
  stamp: 
    secs: 1650324057
    nsecs: 738647460
  frame_id: ''
mode: 2
names: 
  - panda_joint1
  - panda_joint2
  - panda_joint3
  - panda_joint4
  - panda_joint5
  - panda_joint6
  - panda_joint7
position: [-0.056019437793593294, 0.08768494009326883, 0.045692190346487756, -2.0169725358180983, -0.01159334967709334, 2.1390387610594432, 0.7998855982278277]
velocity: [-0.05725304144599203, 0.1393610415022385, 0.02856811135881302, -0.3619788967601343, 0.02600400606674136, 0.47931874688699283, 7.619556012161688e-05]
acceleration: []
effort: []
---
header: 
  seq: 78
  stamp: 
    secs: 1650324057
    nsecs: 764104843
  frame_id: ''
mode: 2
names: 
  - panda_joint1
  - panda_joint2
  - panda_joint3
  - panda_joint4
  - panda_joint5
  - panda_joint6
  - panda_joint7
position: [-0.056019437793593294, 0.08768494009326883, 0.045692190346487756, -2.0169725358180983, -0.01159334967709334, 2.1390387610594432, 0.7998855982278277]
velocity: [-0.05437856530211072, 0.13112315217887194, 0.02715571003390823, -0.34222126931759567, 0.02402257114062336, 0.45200534122296476, 6.737493671726824e-05]
acceleration: []
effort: []
---
header: 
  seq: 79
  stamp: 
    secs: 1650324057
    nsecs: 789568424
  frame_id: ''
mode: 2
names: 
  - panda_joint1
  - panda_joint2
  - panda_joint3
  - panda_joint4
  - panda_joint5
  - panda_joint6
  - panda_joint7
position: [-0.056019437793593294, 0.08768494009326883, 0.045692190346487756, -2.0169725358180983, -0.01159334967709334, 2.1390387610594432, 0.7998855982278277]
velocity: [-0.05171398404705677, 0.12332827614822969, 0.02590679588445555, -0.3233762248878298, 0.022351278436878022, 0.42759405784200233, 5.6420662797540544e-05]
acceleration: []
effort: []
---
header: 
  seq: 80
  stamp: 
    secs: 1650324057
    nsecs: 815667390
  frame_id: ''
mode: 2
names: 
  - panda_joint1
  - panda_joint2
  - panda_joint3
  - panda_joint4
  - panda_joint5
  - panda_joint6
  - panda_joint7
position: [-0.056019437793593294, 0.08768494009326883, 0.045692190346487756, -2.0169725358180983, -0.01159334967709334, 2.1390387610594432, 0.7998855982278277]
velocity: [-0.048808279744077795, 0.11524903492900351, 0.024414742657788577, -0.3035132631912085, 0.020616518604223824, 0.4013858573792577, 5.2780383166028955e-05]
acceleration: []
effort: []
---
header: 
  seq: 81
  stamp: 
    secs: 1650324057
    nsecs: 841765642
  frame_id: ''
mode: 2
names: 
  - panda_joint1
  - panda_joint2
  - panda_joint3
  - panda_joint4
  - panda_joint5
  - panda_joint6
  - panda_joint7
position: [-0.056019437793593294, 0.08768494009326883, 0.045692190346487756, -2.0169725358180983, -0.01159334967709334, 2.1390387610594432, 0.7998855982278277]
velocity: [-0.046001213389522955, 0.1072073540851515, 0.02295314787452646, -0.2841471328424796, 0.01886320990101839, 0.3748609299333272, 3.800013168286931e-05]
acceleration: []
effort: []
---
header: 
  seq: 82
  stamp: 
    secs: 1650324057
    nsecs: 867291212
  frame_id: ''
mode: 2
names: 
  - panda_joint1
  - panda_joint2
  - panda_joint3
  - panda_joint4
  - panda_joint5
  - panda_joint6
  - panda_joint7
position: [-0.056019437793593294, 0.08768494009326883, 0.045692190346487756, -2.0169725358180983, -0.01159334967709334, 2.1390387610594432, 0.7998855982278277]
velocity: [-0.042976567663955245, 0.09845287709866468, 0.021433268889703132, -0.26288680199485803, 0.017233613876165225, 0.3474135553011508, 3.282325043341139e-05]
acceleration: []
effort: []
---
header: 
  seq: 83
  stamp: 
    secs: 1650324057
    nsecs: 893006801
  frame_id: ''
mode: 2
names: 
  - panda_joint1
  - panda_joint2
  - panda_joint3
  - panda_joint4
  - panda_joint5
  - panda_joint6
  - panda_joint7
position: [-0.056019437793593294, 0.08768494009326883, 0.045692190346487756, -2.0169725358180983, -0.01159334967709334, 2.1390387610594432, 0.7998855982278277]
velocity: [-0.04037907677372186, 0.09132066203406819, 0.02003744453117932, -0.24559132214161883, 0.01575898909120882, 0.3240298062464535, 2.339770812498365e-05]
acceleration: []
effort: []
---
header: 
  seq: 84
  stamp: 
    secs: 1650324057
    nsecs: 918450832
  frame_id: ''
mode: 2
names: 
  - panda_joint1
  - panda_joint2
  - panda_joint3
  - panda_joint4
  - panda_joint5
  - panda_joint6
  - panda_joint7
position: [-0.056019437793593294, 0.08768494009326883, 0.045692190346487756, -2.0169725358180983, -0.01159334967709334, 2.1390387610594432, 0.7998855982278277]
velocity: [-0.037599164752944454, 0.08366972949991336, 0.018628855081999587, -0.2267867194113049, 0.014296978737686206, 0.29939117648690905, 2.8452857782745866e-05]
acceleration: []
effort: []
---
header: 
  seq: 85
  stamp: 
    secs: 1650324057
    nsecs: 944142818
  frame_id: ''
mode: 2
names: 
  - panda_joint1
  - panda_joint2
  - panda_joint3
  - panda_joint4
  - panda_joint5
  - panda_joint6
  - panda_joint7
position: [-0.056019437793593294, 0.08768494009326883, 0.045692190346487756, -2.0169725358180983, -0.01159334967709334, 2.1390387610594432, 0.7998855982278277]
velocity: [-0.034939765378543465, 0.07628853683376441, 0.017371733626897416, -0.20829265483932424, 0.01282645750506485, 0.2753493197666499, 1.789974504151637e-05]
acceleration: []
effort: []
---
header: 
  seq: 86
  stamp: 
    secs: 1650324057
    nsecs: 969668865
  frame_id: ''
mode: 2
names: 
  - panda_joint1
  - panda_joint2
  - panda_joint3
  - panda_joint4
  - panda_joint5
  - panda_joint6
  - panda_joint7
position: [-0.056019437793593294, 0.08768494009326883, 0.045692190346487756, -2.0169725358180983, -0.01159334967709334, 2.1390387610594432, 0.7998855982278277]
velocity: [-0.03224891264858662, 0.06937974168466393, 0.01610107217891576, -0.19115151628811278, 0.011313758608797977, 0.25174396404031585, 7.724233912709266e-06]
acceleration: []
effort: []
---
header: 
  seq: 87
  stamp: 
    secs: 1650324057
    nsecs: 995685815
  frame_id: ''
mode: 2
names: 
  - panda_joint1
  - panda_joint2
  - panda_joint3
  - panda_joint4
  - panda_joint5
  - panda_joint6
  - panda_joint7
position: [-0.056019437793593294, 0.08768494009326883, 0.045692190346487756, -2.0169725358180983, -0.01159334967709334, 2.1390387610594432, 0.7998855982278277]
velocity: [-0.02987608232927681, 0.06330013172749019, 0.015012591682247518, -0.17583739533357834, 0.010075100118390336, 0.2316754005390047, 1.0300618251690707e-06]
acceleration: []
effort: []
---
header: 
  seq: 88
  stamp: 
    secs: 1650324058
    nsecs:  21385431
  frame_id: ''
mode: 2
names: 
  - panda_joint1
  - panda_joint2
  - panda_joint3
  - panda_joint4
  - panda_joint5
  - panda_joint6
  - panda_joint7
position: [-0.056019437793593294, 0.08768494009326883, 0.045692190346487756, -2.0169725358180983, -0.01159334967709334, 2.1390387610594432, 0.7998855982278277]
velocity: [-0.027238762157999974, 0.05620692430404142, 0.013747415275615894, -0.15781306156364305, 0.008617167146439092, 0.20791572722062535, -1.1425740188641953e-05]
acceleration: []
effort: []
---
header: 
  seq: 89
  stamp: 
    secs: 1650324058
    nsecs:  47611713
  frame_id: ''
mode: 2
names: 
  - panda_joint1
  - panda_joint2
  - panda_joint3
  - panda_joint4
  - panda_joint5
  - panda_joint6
  - panda_joint7
position: [-0.056019437793593294, 0.08768494009326883, 0.045692190346487756, -2.0169725358180983, -0.01159334967709334, 2.1390387610594432, 0.7998855982278277]
velocity: [-0.024906222634647448, 0.0500690817050837, 0.012498824028983387, -0.1426155420312054, 0.007381903009326195, 0.18725711270475642, -1.2960272739004353e-05]
acceleration: []
effort: []
---
header: 
  seq: 90
  stamp: 
    secs: 1650324058
    nsecs:  73614597
  frame_id: ''
mode: 2
names: 
  - panda_joint1
  - panda_joint2
  - panda_joint3
  - panda_joint4
  - panda_joint5
  - panda_joint6
  - panda_joint7
position: [-0.056019437793593294, 0.08768494009326883, 0.045692190346487756, -2.0169725358180983, -0.01159334967709334, 2.1390387610594432, 0.7998855982278277]
velocity: [-0.022413341253711236, 0.04361524117490187, 0.011156213727353023, -0.1263142614386843, 0.006232358519907132, 0.1662241780268756, -2.9110932666442935e-05]
acceleration: []
effort: []
---
header: 
  seq: 91
  stamp: 
    secs: 1650324058
    nsecs:  99430084
  frame_id: ''
mode: 2
names: 
  - panda_joint1
  - panda_joint2
  - panda_joint3
  - panda_joint4
  - panda_joint5
  - panda_joint6
  - panda_joint7
position: [-0.056019437793593294, 0.08768494009326883, 0.045692190346487756, -2.0169725358180983, -0.01159334967709334, 2.1390387610594432, 0.7998855982278277]
velocity: [-0.020117990947420426, 0.03774979423379868, 0.00998974353934863, -0.11136651987222201, 0.005150014962874615, 0.14662342365711956, -3.996121061566882e-05]
acceleration: []
effort: []
---
header: 
  seq: 92
  stamp: 
    secs: 1650324058
    nsecs: 124937295
  frame_id: ''
mode: 2
names: 
  - panda_joint1
  - panda_joint2
  - panda_joint3
  - panda_joint4
  - panda_joint5
  - panda_joint6
  - panda_joint7
position: [-0.056019437793593294, 0.08768494009326883, 0.045692190346487756, -2.0169725358180983, -0.01159334967709334, 2.1390387610594432, 0.7998855982278277]
velocity: [-0.017966905841360858, 0.032223850296793866, 0.008894942189932302, -0.09719352443753149, 0.004065567633340934, 0.12756806829930012, -3.943388809246606e-05]
acceleration: []
effort: []
---
header: 
  seq: 93
  stamp: 
    secs: 1650324058
    nsecs: 150417089
  frame_id: ''
mode: 2
names: 
  - panda_joint1
  - panda_joint2
  - panda_joint3
  - panda_joint4
  - panda_joint5
  - panda_joint6
  - panda_joint7
position: [-0.056019437793593294, 0.08768494009326883, 0.045692190346487756, -2.0169725358180983, -0.01159334967709334, 2.1390387610594432, 0.7998855982278277]
velocity: [-0.01593916950034233, 0.027118804051849382, 0.007873333811974748, -0.08435229616451023, 0.0030872883382634317, 0.11010718892179439, -4.228787161819625e-05]
acceleration: []
effort: []
---
header: 
  seq: 94
  stamp: 
    secs: 1650324058
    nsecs: 175948858
  frame_id: ''
mode: 2
names: 
  - panda_joint1
  - panda_joint2
  - panda_joint3
  - panda_joint4
  - panda_joint5
  - panda_joint6
  - panda_joint7
position: [-0.056019437793593294, 0.08768494009326883, 0.045692190346487756, -2.0169725358180983, -0.01159334967709334, 2.1390387610594432, 0.7998855982278277]
velocity: [-0.013805543232162628, 0.022062346646703535, 0.006807386544875754, -0.0709102997765707, 0.0021795492369463196, 0.09335842773572622, -4.018802775251906e-05]
acceleration: []
effort: []
---
header: 
  seq: 95
  stamp: 
    secs: 1650324058
    nsecs: 201411008
  frame_id: ''
mode: 2
names: 
  - panda_joint1
  - panda_joint2
  - panda_joint3
  - panda_joint4
  - panda_joint5
  - panda_joint6
  - panda_joint7
position: [-0.056019437793593294, 0.08768494009326883, 0.045692190346487756, -2.0169725358180983, -0.01159334967709334, 2.1390387610594432, 0.7998855982278277]
velocity: [-0.011865881628501763, 0.017537314011204702, 0.005923476247879041, -0.05924611147175485, 0.0013441447991710403, 0.07754231622095009, -5.653892992873999e-05]
acceleration: []
effort: []
---
header: 
  seq: 96
  stamp: 
    secs: 1650324058
    nsecs: 226877212
  frame_id: ''
mode: 2
names: 
  - panda_joint1
  - panda_joint2
  - panda_joint3
  - panda_joint4
  - panda_joint5
  - panda_joint6
  - panda_joint7
position: [-0.056019437793593294, 0.08768494009326883, 0.045692190346487756, -2.0169725358180983, -0.01159334967709334, 2.1390387610594432, 0.7998855982278277]
velocity: [-0.010021261958814687, 0.013006902915734364, 0.005084080934435818, -0.04779696754807272, 0.0004717841921243124, 0.06179993544689388, -5.653930372617744e-05]
acceleration: []
effort: []
---
header: 
  seq: 97
  stamp: 
    secs: 1650324058
    nsecs: 252354860
  frame_id: ''
mode: 2
names: 
  - panda_joint1
  - panda_joint2
  - panda_joint3
  - panda_joint4
  - panda_joint5
  - panda_joint6
  - panda_joint7
position: [-0.056019437793593294, 0.08768494009326883, 0.045692190346487756, -2.0169725358180983, -0.01159334967709334, 2.1390387610594432, 0.7998855982278277]
velocity: [-0.008286622857268474, 0.008926886828787617, 0.004284345452374945, -0.03734539445389995, -0.00023667775026780385, 0.047585238507933614, -5.944452041739545e-05]
acceleration: []
effort: []
---
header: 
  seq: 98
  stamp: 
    secs: 1650324058
    nsecs: 277837991
  frame_id: ''
mode: 2
names: 
  - panda_joint1
  - panda_joint2
  - panda_joint3
  - panda_joint4
  - panda_joint5
  - panda_joint6
  - panda_joint7
position: [-0.056019437793593294, 0.08768494009326883, 0.045692190346487756, -2.0169725358180983, -0.01159334967709334, 2.1390387610594432, 0.7998855982278277]
velocity: [-0.00657549500230548, 0.004970872555172479, 0.003441441181679314, -0.026597210997515663, -0.0009326158717626806, 0.03404402040379351, -5.875182813297464e-05]
acceleration: []
effort: []
---
header: 
  seq: 99
  stamp: 
    secs: 1650324058
    nsecs: 303376674
  frame_id: ''
mode: 2
names: 
  - panda_joint1
  - panda_joint2
  - panda_joint3
  - panda_joint4
  - panda_joint5
  - panda_joint6
  - panda_joint7
position: [-0.056019437793593294, 0.08768494009326883, 0.045692190346487756, -2.0169725358180983, -0.01159334967709334, 2.1390387610594432, 0.7998855982278277]
velocity: [-0.005055728277003087, 0.0013817109399626992, 0.002721441269118746, -0.01722382016979518, -0.0015541836937165779, 0.022348969611533764, -7.530834686253485e-05]
acceleration: []
effort: []
---
header: 
  seq: 100
  stamp: 
    secs: 1650324058
    nsecs: 329124927
  frame_id: ''
mode: 2
names: 
  - panda_joint1
  - panda_joint2
  - panda_joint3
  - panda_joint4
  - panda_joint5
  - panda_joint6
  - panda_joint7
position: [-0.056019437793593294, 0.08768494009326883, 0.045692190346487756, -2.0169725358180983, -0.01159334967709334, 2.1390387610594432, 0.7998855982278277]
velocity: [-0.0037420906065571305, -0.0017467199774377495, 0.002045437373863708, -0.009217129702760563, -0.002128271874731691, 0.011447734587080483, -5.83608077855402e-05]
acceleration: []
effort: []
---
header: 
  seq: 101
  stamp: 
    secs: 1650324058
    nsecs: 354610919
  frame_id: ''
mode: 2
names: 
  - panda_joint1
  - panda_joint2
  - panda_joint3
  - panda_joint4
  - panda_joint5
  - panda_joint6
  - panda_joint7
position: [-0.056019437793593294, 0.08768494009326883, 0.045692190346487756, -2.0169725358180983, -0.01159334967709334, 2.1390387610594432, 0.7998855982278277]
velocity: [-0.0022249271529790793, -0.005448033581658518, 0.0012918133794999065, 0.00028158015531287717, -0.002798293994829837, -0.0011795082944443536, -7.067911492408818e-05]
acceleration: []
effort: []
---
header: 
  seq: 102
  stamp: 
    secs: 1650324058
    nsecs: 379881620
  frame_id: ''
mode: 2
names: 
  - panda_joint1
  - panda_joint2
  - panda_joint3
  - panda_joint4
  - panda_joint5
  - panda_joint6
  - panda_joint7
position: [-0.056019437793593294, 0.08768494009326883, 0.045692190346487756, -2.0169725358180983, -0.01159334967709334, 2.1390387610594432, 0.7998855982278277]
velocity: [0.0, -0.005448033581658518, 0.0012918133794999065, 0.00028158015531287717, -0.002798293994829837, -0.0011795082944443536, -7.067911492408818e-05]
acceleration: []
effort: []
---
header: 
  seq: 103
  stamp: 
    secs: 1650324058
    nsecs: 379979372
  frame_id: ''
mode: 2
names: 
  - panda_joint1
  - panda_joint2
  - panda_joint3
  - panda_joint4
  - panda_joint5
  - panda_joint6
  - panda_joint7
position: [-0.056019437793593294, 0.08768494009326883, 0.045692190346487756, -2.0169725358180983, -0.01159334967709334, 2.1390387610594432, 0.7998855982278277]
velocity: [0.0, 0.0, 0.0012918133794999065, 0.00028158015531287717, -0.002798293994829837, -0.0011795082944443536, -7.067911492408818e-05]
acceleration: []
effort: []
---
header: 
  seq: 104
  stamp: 
    secs: 1650324058
    nsecs: 380597829
  frame_id: ''
mode: 2
names: 
  - panda_joint1
  - panda_joint2
  - panda_joint3
  - panda_joint4
  - panda_joint5
  - panda_joint6
  - panda_joint7
position: [-0.056019437793593294, 0.08768494009326883, 0.045692190346487756, -2.0169725358180983, -0.01159334967709334, 2.1390387610594432, 0.7998855982278277]
velocity: [0.0, 0.0, 0.0, 0.00028158015531287717, -0.002798293994829837, -0.0011795082944443536, -7.067911492408818e-05]
acceleration: []
effort: []
---
header: 
  seq: 105
  stamp: 
    secs: 1650324058
    nsecs: 380665540
  frame_id: ''
mode: 2
names: 
  - panda_joint1
  - panda_joint2
  - panda_joint3
  - panda_joint4
  - panda_joint5
  - panda_joint6
  - panda_joint7
position: [-0.056019437793593294, 0.08768494009326883, 0.045692190346487756, -2.0169725358180983, -0.01159334967709334, 2.1390387610594432, 0.7998855982278277]
velocity: [0.0, 0.0, 0.0, 0.0, -0.002798293994829837, -0.0011795082944443536, -7.067911492408818e-05]
acceleration: []
effort: []
---
header: 
  seq: 106
  stamp: 
    secs: 1650324058
    nsecs: 380717515
  frame_id: ''
mode: 2
names: 
  - panda_joint1
